{
  "type": "FeatureCollection",
  "features": [
    {
      "type": "Feature",
      "geometry": {
        "type": "Polygon",
        "coordinates": [
          [
            [
              -106.131868,
              40.311436
            ],
            [
              -105.896898,
              40.311436
            ],
            [
              -105.896898,
              40.663455
            ],
            [
              -106.131868,
              40.663455
            ],
            [
              -106.131868,
              40.311436
            ]
          ]
        ]
      },
      "properties": {
        "name": "Map Boundary",
        "source": "Derived from Map-Level Township Ranges",
        "map_township_ranges_used": [
          "T8N R78W Section 15",
          "T7N R78W Section 15",
          "T6N R78W Section 15",
          "T5N R78W Section 15",
          "T4N R78W Section 15",
          "T8N R77W Section 15",
          "T7N R77W Section 15",
          "T6N R77W Section 15",
          "T5N R77W Section 15",
          "T8N R76W Section 15",
          "T7N R76W Section 15",
          "T6N R76W Section 15",
          "T5N R76W Section 15"
        ]
      }
    },
    {
      "type": "Feature",
      "geometry": {
        "type": "Point",
        "coordinates": [
          -105.823067,
          40.2522073
        ]
      },
      "properties": {
        "name": "Grand Lake",
        "type": "lake",
        "coordinate_source": "Geocoded from name: Grand Lake",
        "township_range_used": ""
      }
    },
    {
      "type": "Feature",
      "geometry": {
        "type": "Point",
        "coordinates": [
          -105.8430753,
          40.2287823
        ]
      },
      "properties": {
        "name": "Shadow Mountain Lake",
        "type": "reservoir",
        "coordinate_source": "Geocoded from name: Shadow Mountain Lake",
        "township_range_used": ""
      }
    },
    {
      "type": "Feature",
      "geometry": {
        "type": "Point",
        "coordinates": [
          -106.5427008,
          39.3723679
        ]
      },
      "properties": {
        "name": "Carter Lake",
        "type": "reservoir",
        "coordinate_source": "Geocoded from name: Carter Lake",
        "township_range_used": ""
      }
    },
    {
      "type": "Feature",
      "geometry": {
        "type": "Point",
        "coordinates": [
          -105.1326096,
          40.7440806
        ]
      },
      "properties": {
        "name": "Poudre Supply Canal",
        "type": "canal",
        "coordinate_source": "Geocoded from name: Poudre Supply Canal",
        "township_range_used": ""
      }
    },
    {
      "type": "Feature",
      "geometry": {
        "type": "Point",
        "coordinates": [
          -105.2653391,
          40.4151047
        ]
      },
      "properties": {
        "name": "Big Thompson River",
        "type": "river",
        "coordinate_source": "Geocoded from name: Big Thompson River",
        "township_range_used": ""
      }
    },
    {
      "type": "Feature",
      "geometry": {
        "type": "Point",
        "coordinates": [
          -108.4861295,
          39.0568995
        ]
      },
      "properties": {
        "name": "Colorado River",
        "type": "river",
        "coordinate_source": "Geocoded from name: Colorado River",
        "township_range_used": ""
      }
    },
    {
      "type": "Feature",
      "geometry": {
        "type": "Point",
        "coordinates": [
          -105.2587706,
          40.2176631
        ]
      },
      "properties": {
        "name": "St. Vrain Supply Canal",
        "type": "canal",
        "coordinate_source": "Geocoded from name: St. Vrain Supply Canal",
        "township_range_used": ""
      }
    },
    {
      "type": "Feature",
      "geometry": {
        "type": "Point",
        "coordinates": [
          -104.8768039,
          40.3298695
        ]
      },
      "properties": {
        "name": "Little Thompson River",
        "type": "river",
        "coordinate_source": "Geocoded from name: Little Thompson River",
        "township_range_used": ""
      }
    },
    {
      "type": "Feature",
      "geometry": {
        "type": "Point",
        "coordinates": [
          -105.4509847,
          40.4537393
        ]
      },
      "properties": {
        "name": "North Fork Big Thompson",
        "type": "river",
        "coordinate_source": "Geocoded from name: North Fork Big Thompson",
        "township_range_used": ""
      }
    },
    {
      "type": "Feature",
      "geometry": {
        "type": "Point",
        "coordinates": [
          -107.9452508,
          37.9583394
        ]
      },
      "properties": {
        "name": "Willow Creek",
        "type": "creek",
        "coordinate_source": "Geocoded from name: Willow Creek",
        "township_range_used": ""
      }
    }
  ]
}